{
  "version": "0.1",
  "note": "寄り町マスタ（手動）。hub_node_id は rail_graph.json v0.2 の node id。null は MVP 路線外（座標のみ）。",
  "departure_shortcuts": [
    { "label": "新宿", "node_id": "g_003700", "area": "新宿" },
    { "label": "渋谷", "node_id": "g_003922", "area": "渋谷" },
    { "label": "東京", "node_id": "g_003766", "area": "東京" },
    { "label": "池袋", "node_id": "g_003390", "area": "池袋" },
    { "label": "品川", "node_id": "g_004095", "area": "品川" }
  ],
  "towns": [
    {
      "id": "shimokitazawa",
      "name": "下北沢",
      "tagline": "古着とライブの町",
      "flavors": ["サブカル", "古着", "ライブ"],
      "hub_node_id": "g_003908",
      "lat": 35.661772,
      "lon": 139.668306,
      "in_graph": true
    },
    {
      "id": "nakano",
      "name": "中野",
      "tagline": "ブックカフェとサブカル",
      "flavors": ["書店", "サブカル"],
      "hub_node_id": "g_003568",
      "lat": 35.705765,
      "lon": 139.665835,
      "in_graph": true
    },
    {
      "id": "kichijoji",
      "name": "吉祥寺",
      "tagline": "公園と雑貨の町",
      "flavors": ["のんびり", "雑貨", "カフェ"],
      "hub_node_id": "g_003584",
      "lat": 35.703119,
      "lon": 139.579749,
      "in_graph": true
    },
    {
      "id": "yanaka",
      "name": "谷中",
      "tagline": "下町と猫の路地",
      "flavors": ["下町", "のんびり"],
      "hub_node_id": "g_003505",
      "lat": 35.720278,
      "lon": 139.7625,
      "in_graph": true
    },
    {
      "id": "asakusa",
      "name": "浅草",
      "tagline": "雷門と川沿い",
      "flavors": ["下町", "観光"],
      "hub_node_id": "g_003522",
      "lat": 35.710763,
      "lon": 139.796697,
      "in_graph": true
    },
    {
      "id": "ueno",
      "name": "上野",
      "tagline": "公園とアメ横",
      "flavors": ["下町", "公園"],
      "hub_node_id": "g_003505",
      "lat": 35.713768,
      "lon": 139.777254,
      "in_graph": true
    },
    {
      "id": "akihabara",
      "name": "秋葉原",
      "tagline": "電気街とポップカルチャー",
      "flavors": ["サブカル", "賑わい"],
      "hub_node_id": "g_003624",
      "lat": 35.698619,
      "lon": 139.773185,
      "in_graph": true
    },
    {
      "id": "kagurazaka",
      "name": "神楽坂",
      "tagline": "坂道と小料理",
      "flavors": ["のんびり", "食"],
      "hub_node_id": "g_003578",
      "lat": 35.701989,
      "lon": 139.737679,
      "in_graph": true
    },
    {
      "id": "ginza",
      "name": "銀座",
      "tagline": "街並みとデパート",
      "flavors": ["街歩き", "ショッピング"],
      "hub_node_id": "g_003823",
      "lat": 35.671989,
      "lon": 139.763965,
      "in_graph": true
    },
    {
      "id": "nihombashi",
      "name": "日本橋",
      "tagline": "老舗とビジネス街",
      "flavors": ["街歩き", "歴史"],
      "hub_node_id": "g_003756",
      "lat": 35.681839,
      "lon": 139.774273,
      "in_graph": true
    },
    {
      "id": "tokyo",
      "name": "東京駅周辺",
      "tagline": "赤レンガとグランルーフ",
      "flavors": ["街歩き", "歴史"],
      "hub_node_id": "g_003766",
      "lat": 35.681236,
      "lon": 139.767125,
      "in_graph": true
    },
    {
      "id": "harajuku",
      "name": "原宿",
      "tagline": "竹下通りと裏原",
      "flavors": ["若者文化", "ファッション"],
      "hub_node_id": "g_003828",
      "lat": 35.670646,
      "lon": 139.702587,
      "in_graph": true
    },
    {
      "id": "omotesando",
      "name": "表参道",
      "tagline": "ケヤキ並木とブティック",
      "flavors": ["街歩き", "ファッション"],
      "hub_node_id": "g_003883",
      "lat": 35.665247,
      "lon": 139.712097,
      "in_graph": true
    },
    {
      "id": "shibuya",
      "name": "渋谷",
      "tagline": "スクランブルと音楽",
      "flavors": ["賑わい", "ナイト"],
      "hub_node_id": "g_003922",
      "lat": 35.658034,
      "lon": 139.701636,
      "in_graph": true
    },
    {
      "id": "ebisu",
      "name": "恵比寿",
      "tagline": "ビアホールと居酒屋横丁",
      "flavors": ["食", "ナイト"],
      "hub_node_id": "g_003991",
      "lat": 35.646685,
      "lon": 139.710026,
      "in_graph": true
    },
    {
      "id": "nakameguro",
      "name": "中目黒",
      "tagline": "目黒川とカフェ",
      "flavors": ["カフェ", "のんびり"],
      "hub_node_id": "g_004014",
      "lat": 35.644279,
      "lon": 139.698812,
      "in_graph": true
    },
    {
      "id": "roppongi",
      "name": "六本木",
      "tagline": "美術館と夜景",
      "flavors": ["ナイト", "アート"],
      "hub_node_id": "g_003892",
      "lat": 35.662836,
      "lon": 139.731443,
      "in_graph": true
    },
    {
      "id": "yoyogi",
      "name": "代々木",
      "tagline": "公園とライブハウス",
      "flavors": ["公園", "ライブ"],
      "hub_node_id": "g_003743",
      "lat": 35.683061,
      "lon": 139.702042,
      "in_graph": true
    },
    {
      "id": "okubo",
      "name": "大久保",
      "tagline": "多国籍の食べ歩き",
      "flavors": ["食", "国際"],
      "hub_node_id": "g_003700",
      "lat": 35.701432,
      "lon": 139.700464,
      "in_graph": true
    },
    {
      "id": "kinshicho",
      "name": "錦糸町",
      "tagline": "下町と映画館",
      "flavors": ["下町", "エンタメ"],
      "hub_node_id": "g_003639",
      "lat": 35.696373,
      "lon": 139.814339,
      "in_graph": true
    },
    {
      "id": "monzen",
      "name": "門前仲町",
      "tagline": "運河と居酒屋",
      "flavors": ["下町", "食"],
      "hub_node_id": "g_003754",
      "lat": 35.672897,
      "lon": 139.796209,
      "in_graph": true
    },
    {
      "id": "toyosu",
      "name": "豊洲",
      "tagline": "市場跡地と湾岸",
      "flavors": ["海沿い", "街歩き"],
      "hub_node_id": "g_003951",
      "lat": 35.65371,
      "lon": 139.795404,
      "in_graph": true
    },
    {
      "id": "odaiba",
      "name": "お台場",
      "tagline": "ベイエリアの散歩",
      "flavors": ["海沿い", "夜景"],
      "hub_node_id": "g_004112",
      "lat": 35.626446,
      "lon": 139.775114,
      "in_graph": true
    },
    {
      "id": "ryogoku",
      "name": "両国",
      "tagline": "相撲と江戸情緒",
      "flavors": ["下町", "歴史"],
      "hub_node_id": "g_003646",
      "lat": 35.695949,
      "lon": 139.793641,
      "in_graph": true
    },
    {
      "id": "daikanyama",
      "name": "代官山",
      "tagline": "ブティックとカフェ",
      "flavors": ["カフェ", "街歩き"],
      "hub_node_id": "g_004014",
      "lat": 35.648678,
      "lon": 139.703116,
      "in_graph": true
    },
    {
      "id": "jiyugaoka",
      "name": "自由が丘",
      "tagline": "スイーツと雑貨",
      "flavors": ["カフェ", "のんびり"],
      "hub_node_id": "g_004196",
      "lat": 35.607324,
      "lon": 139.668789,
      "in_graph": true
    },
    {
      "id": "koenji",
      "name": "高円寺",
      "tagline": "古着とライブバー",
      "flavors": ["サブカル", "古着"],
      "hub_node_id": "g_003573",
      "lat": 35.705784,
      "lon": 139.649098,
      "in_graph": true
    },
    {
      "id": "sangenchaya",
      "name": "三軒茶屋",
      "tagline": "三角地帯と居酒屋",
      "flavors": ["食", "ナイト"],
      "hub_node_id": "g_004016",
      "lat": 35.643687,
      "lon": 139.670346,
      "in_graph": true
    }
  ]
}
