{
  "version": "0.2",
  "note": "寄り町マスタ。tier=curated は手選り、tier=station は build_yorimachi で自動付与。trends_key は td_trends_cache.json の駅ID（代理）。",
  "departure_shortcuts": [
    {
      "label": "新宿",
      "node_id": "g_003700",
      "area": "新宿"
    },
    {
      "label": "渋谷",
      "node_id": "g_003922",
      "area": "渋谷"
    },
    {
      "label": "東京",
      "node_id": "g_003766",
      "area": "東京"
    },
    {
      "label": "池袋",
      "node_id": "g_003390",
      "area": "池袋"
    },
    {
      "label": "品川",
      "node_id": "g_004095",
      "area": "品川"
    }
  ],
  "towns": [
    {
      "id": "shimokitazawa",
      "name": "下北沢",
      "tagline": "古着とライブの町",
      "flavors": [
        "サブカル",
        "古着",
        "ライブ"
      ],
      "hub_node_id": "g_003908",
      "lat": 35.661772,
      "lon": 139.668306,
      "in_graph": true,
      "trends_key": null,
      "trends_query": "下北沢",
      "today_hints": {
        "default": "古着屋とライブハウスを1軒",
        "high_td": "話題のイベント・新店をチェック",
        "low_td": "路地をのんびり散歩"
      },
      "tier": "curated"
    },
    {
      "id": "nakano",
      "name": "中野",
      "tagline": "ブックカフェとサブカル",
      "flavors": [
        "書店",
        "サブカル"
      ],
      "hub_node_id": "g_003568",
      "lat": 35.705765,
      "lon": 139.665835,
      "in_graph": true,
      "trends_key": null,
      "trends_query": "中野",
      "today_hints": {
        "default": "ブックカフェで一冊探す",
        "high_td": "サブカルスポットを1軒回る",
        "low_td": "中野坂上までゆっくり歩く"
      },
      "tier": "curated"
    },
    {
      "id": "kichijoji",
      "name": "吉祥寺",
      "tagline": "公園と雑貨の町",
      "flavors": [
        "のんびり",
        "雑貨",
        "カフェ"
      ],
      "hub_node_id": "g_003584",
      "lat": 35.703119,
      "lon": 139.579749,
      "in_graph": true,
      "trends_key": null,
      "trends_query": "吉祥寺",
      "today_hints": {
        "default": "井の頭公園でひと息",
        "high_td": "話題の雑貨店へ寄る",
        "low_td": "公園ベンチで夕方まで"
      },
      "tier": "curated"
    },
    {
      "id": "yanaka",
      "name": "谷中",
      "tagline": "下町と猫の路地",
      "flavors": [
        "下町",
        "のんびり"
      ],
      "hub_node_id": "g_003505",
      "lat": 35.720278,
      "lon": 139.7625,
      "in_graph": true,
      "trends_key": null,
      "trends_query": "谷中",
      "today_hints": {
        "default": "猫の路地を歩く",
        "high_td": "谷中銀座をブラブラ",
        "low_td": "静かな坂道をのんびり"
      },
      "tier": "curated"
    },
    {
      "id": "asakusa",
      "name": "浅草",
      "tagline": "雷門と川沿い",
      "flavors": [
        "下町",
        "観光"
      ],
      "hub_node_id": "g_003522",
      "lat": 35.710763,
      "lon": 139.796697,
      "in_graph": true,
      "trends_key": "oshiage",
      "trends_query": "浅草",
      "today_hints": {
        "default": "雷門から仲見世を歩く",
        "high_td": "話題のスポットをチェック",
        "low_td": "川沿いを静かに散歩"
      },
      "tier": "curated"
    },
    {
      "id": "ueno",
      "name": "上野",
      "tagline": "公園とアメ横",
      "flavors": [
        "下町",
        "公園"
      ],
      "hub_node_id": "g_003505",
      "lat": 35.713768,
      "lon": 139.777254,
      "in_graph": true,
      "trends_key": "ueno",
      "trends_query": "上野",
      "today_hints": {
        "default": "公園とアメ横を回る",
        "high_td": "話題のイベントを覗く",
        "low_td": "公園でゆっくり過ごす"
      },
      "tier": "curated"
    },
    {
      "id": "akihabara",
      "name": "秋葉原",
      "tagline": "電気街とポップカルチャー",
      "flavors": [
        "サブカル",
        "賑わい"
      ],
      "hub_node_id": "g_003624",
      "lat": 35.698619,
      "lon": 139.773185,
      "in_graph": true,
      "trends_key": "akihabara",
      "trends_query": "秋葉原",
      "today_hints": {
        "default": "電気街を1周",
        "high_td": "話題のポップカルチャーをチェック",
        "low_td": "混雑前に裏通りを歩く"
      },
      "tier": "curated"
    },
    {
      "id": "kagurazaka",
      "name": "神楽坂",
      "tagline": "坂道と小料理",
      "flavors": [
        "のんびり",
        "食"
      ],
      "hub_node_id": "g_003578",
      "lat": 35.701989,
      "lon": 139.737679,
      "in_graph": true,
      "trends_key": null,
      "trends_query": "神楽坂",
      "today_hints": {
        "default": "坂道と小料理屋を1軒",
        "high_td": "話題の店を1軒予約",
        "low_td": "石畳をのんびり歩く"
      },
      "tier": "curated"
    },
    {
      "id": "ginza",
      "name": "銀座",
      "tagline": "街並みとデパート",
      "flavors": [
        "街歩き",
        "ショッピング"
      ],
      "hub_node_id": "g_003823",
      "lat": 35.671989,
      "lon": 139.763965,
      "in_graph": true,
      "trends_key": "ginza",
      "trends_query": "銀座",
      "today_hints": {
        "default": "並木通りを歩く",
        "high_td": "話題のショップを覗く",
        "low_td": "路地裏カフェで一息"
      },
      "tier": "curated"
    },
    {
      "id": "nihombashi",
      "name": "日本橋",
      "tagline": "老舗とビジネス街",
      "flavors": [
        "街歩き",
        "歴史"
      ],
      "hub_node_id": "g_003756",
      "lat": 35.681839,
      "lon": 139.774273,
      "in_graph": true,
      "trends_key": null,
      "trends_query": "日本橋",
      "today_hints": {
        "default": "老舗と橋の景色を見る",
        "high_td": "話題のエリアをチェック",
        "low_td": "ビジネス街の静かな路地へ"
      },
      "tier": "curated"
    },
    {
      "id": "tokyo",
      "name": "東京駅周辺",
      "tagline": "赤レンガとグランルーフ",
      "flavors": [
        "街歩き",
        "歴史"
      ],
      "hub_node_id": "g_003766",
      "lat": 35.681236,
      "lon": 139.767125,
      "in_graph": true,
      "trends_key": "tokyo",
      "trends_query": "東京駅",
      "today_hints": {
        "default": "赤レンガ駅舎を眺める",
        "high_td": "グランルーフの話題店へ",
        "low_td": "駅周辺を短く散歩"
      },
      "tier": "curated"
    },
    {
      "id": "harajuku",
      "name": "原宿",
      "tagline": "竹下通りと裏原",
      "flavors": [
        "若者文化",
        "ファッション"
      ],
      "hub_node_id": "g_003828",
      "lat": 35.670646,
      "lon": 139.702587,
      "in_graph": true,
      "trends_key": "harajuku",
      "trends_query": "原宿",
      "today_hints": {
        "default": "竹下通りと裏原を歩く",
        "high_td": "話題のファッション店へ",
        "low_td": "代々木公園側を散歩"
      },
      "tier": "curated"
    },
    {
      "id": "omotesando",
      "name": "表参道",
      "tagline": "ケヤキ並木とブティック",
      "flavors": [
        "街歩き",
        "ファッション"
      ],
      "hub_node_id": "g_003883",
      "lat": 35.665247,
      "lon": 139.712097,
      "in_graph": true,
      "trends_key": "omotesando",
      "trends_query": "表参道",
      "today_hints": {
        "default": "ケヤキ並木を歩く",
        "high_td": "話題のブティックを覗く",
        "low_td": "カフェでゆっくり"
      },
      "tier": "curated"
    },
    {
      "id": "shibuya",
      "name": "渋谷",
      "tagline": "スクランブルと音楽",
      "flavors": [
        "賑わい",
        "ナイト"
      ],
      "hub_node_id": "g_003922",
      "lat": 35.658034,
      "lon": 139.701636,
      "in_graph": true,
      "trends_key": "shibuya",
      "trends_query": "渋谷",
      "today_hints": {
        "default": "スクランブル周辺を歩く",
        "high_td": "いま話題のスポットへ",
        "low_td": "混雑前に路地を散歩"
      },
      "tier": "curated"
    },
    {
      "id": "ebisu",
      "name": "恵比寿",
      "tagline": "ビアホールと居酒屋横丁",
      "flavors": [
        "食",
        "ナイト"
      ],
      "hub_node_id": "g_003991",
      "lat": 35.646685,
      "lon": 139.710026,
      "in_graph": true,
      "trends_key": "ebisu",
      "trends_query": "恵比寿",
      "today_hints": {
        "default": "居酒屋横丁で一杯",
        "high_td": "話題のビアホールへ",
        "low_td": "坂道をのんびり歩く"
      },
      "tier": "curated"
    },
    {
      "id": "nakameguro",
      "name": "中目黒",
      "tagline": "目黒川とカフェ",
      "flavors": [
        "カフェ",
        "のんびり"
      ],
      "hub_node_id": "g_004014",
      "lat": 35.644279,
      "lon": 139.698812,
      "in_graph": true,
      "trends_key": "nakameguro",
      "trends_query": "中目黒",
      "today_hints": {
        "default": "目黒川沿いのカフェへ",
        "high_td": "話題のカフェを1軒",
        "low_td": "川沿いを静かに歩く"
      },
      "tier": "curated"
    },
    {
      "id": "roppongi",
      "name": "六本木",
      "tagline": "美術館と夜景",
      "flavors": [
        "ナイト",
        "アート"
      ],
      "hub_node_id": "g_003892",
      "lat": 35.662836,
      "lon": 139.731443,
      "in_graph": true,
      "trends_key": "roppongi",
      "trends_query": "六本木",
      "today_hints": {
        "default": "美術館か夜景スポットへ",
        "high_td": "話題の展示・夜景をチェック",
        "low_td": "丘の上を短く散歩"
      },
      "tier": "curated"
    },
    {
      "id": "yoyogi",
      "name": "代々木",
      "tagline": "公園とライブハウス",
      "flavors": [
        "公園",
        "ライブ"
      ],
      "hub_node_id": "g_003743",
      "lat": 35.683061,
      "lon": 139.702042,
      "in_graph": true,
      "trends_key": "yoyogi",
      "trends_query": "代々木",
      "today_hints": {
        "default": "公園でひと休み",
        "high_td": "話題のライブ・イベントへ",
        "low_td": "公園のベンチで読書"
      },
      "tier": "curated"
    },
    {
      "id": "okubo",
      "name": "大久保",
      "tagline": "多国籍の食べ歩き",
      "flavors": [
        "食",
        "国際"
      ],
      "hub_node_id": "g_003700",
      "lat": 35.701432,
      "lon": 139.700464,
      "in_graph": true,
      "trends_key": "shinokubo",
      "trends_query": "大久保",
      "today_hints": {
        "default": "多国籍の食べ歩き",
        "high_td": "話題の韓国街グルメへ",
        "low_td": "路地をのんびり歩く"
      },
      "tier": "curated"
    },
    {
      "id": "kinshicho",
      "name": "錦糸町",
      "tagline": "下町と映画館",
      "flavors": [
        "下町",
        "エンタメ"
      ],
      "hub_node_id": "g_003639",
      "lat": 35.696373,
      "lon": 139.814339,
      "in_graph": true,
      "trends_key": "kinshicho",
      "trends_query": "錦糸町",
      "today_hints": {
        "default": "下町と映画館を楽しむ",
        "high_td": "話題のエンタメをチェック",
        "low_td": "北口の静かな路地へ"
      },
      "tier": "curated"
    },
    {
      "id": "monzen",
      "name": "門前仲町",
      "tagline": "運河と居酒屋",
      "flavors": [
        "下町",
        "食"
      ],
      "hub_node_id": "g_003818",
      "lat": 35.672897,
      "lon": 139.796209,
      "in_graph": true,
      "trends_key": null,
      "trends_query": "門前仲町",
      "today_hints": {
        "default": "運河沿いの居酒屋へ",
        "high_td": "話題の店を1軒",
        "low_td": "運河を眺めながら散歩"
      },
      "tier": "curated"
    },
    {
      "id": "toyosu",
      "name": "豊洲",
      "tagline": "市場跡地と湾岸",
      "flavors": [
        "海沿い",
        "街歩き"
      ],
      "hub_node_id": "g_003951",
      "lat": 35.65371,
      "lon": 139.795404,
      "in_graph": true,
      "trends_key": "toyosu",
      "trends_query": "豊洲",
      "today_hints": {
        "default": "湾岸を歩く",
        "high_td": "話題の施設をチェック",
        "low_td": "海風を感じて散歩"
      },
      "tier": "curated"
    },
    {
      "id": "odaiba",
      "name": "お台場",
      "tagline": "ベイエリアの散歩",
      "flavors": [
        "海沿い",
        "夜景"
      ],
      "hub_node_id": "g_004112",
      "lat": 35.626446,
      "lon": 139.775114,
      "in_graph": true,
      "trends_key": "toyosu",
      "trends_query": "お台場",
      "today_hints": {
        "default": "ベイエリアを散歩",
        "high_td": "話題の夜景スポットへ",
        "low_td": "海辺をゆっくり歩く"
      },
      "tier": "curated"
    },
    {
      "id": "ryogoku",
      "name": "両国",
      "tagline": "相撲と江戸情緒",
      "flavors": [
        "下町",
        "歴史"
      ],
      "hub_node_id": "g_003646",
      "lat": 35.695949,
      "lon": 139.793641,
      "in_graph": true,
      "trends_key": null,
      "trends_query": "両国",
      "today_hints": {
        "default": "国技館周辺を歩く",
        "high_td": "相撲・下町の話題をチェック",
        "low_td": "江戸情緒の路地を散歩"
      },
      "tier": "curated"
    },
    {
      "id": "daikanyama",
      "name": "代官山",
      "tagline": "ブティックとカフェ",
      "flavors": [
        "カフェ",
        "街歩き"
      ],
      "hub_node_id": "g_004014",
      "lat": 35.648678,
      "lon": 139.703116,
      "in_graph": true,
      "trends_key": "nakameguro",
      "trends_query": "代官山",
      "today_hints": {
        "default": "ブティックとカフェを1軒",
        "high_td": "話題の店を覗く",
        "low_td": "丘の上をのんびり"
      },
      "tier": "curated"
    },
    {
      "id": "jiyugaoka",
      "name": "自由が丘",
      "tagline": "スイーツと雑貨",
      "flavors": [
        "カフェ",
        "のんびり"
      ],
      "hub_node_id": "g_004196",
      "lat": 35.607324,
      "lon": 139.668789,
      "in_graph": true,
      "trends_key": null,
      "trends_query": "自由が丘",
      "today_hints": {
        "default": "スイーツと雑貨を楽しむ",
        "high_td": "話題のスイーツ店へ",
        "low_td": "住宅街を散歩"
      },
      "tier": "curated"
    },
    {
      "id": "koenji",
      "name": "高円寺",
      "tagline": "古着とライブバー",
      "flavors": [
        "サブカル",
        "古着"
      ],
      "hub_node_id": "g_003573",
      "lat": 35.705784,
      "lon": 139.649098,
      "in_graph": true,
      "trends_key": null,
      "trends_query": "高円寺",
      "today_hints": {
        "default": "古着屋を1軒回る",
        "high_td": "話題のライブバーへ",
        "low_td": "路地をのんびり歩く"
      },
      "tier": "curated"
    },
    {
      "id": "sangenchaya",
      "name": "三軒茶屋",
      "tagline": "三角地帯と居酒屋",
      "flavors": [
        "食",
        "ナイト"
      ],
      "hub_node_id": "g_004016",
      "lat": 35.643687,
      "lon": 139.670346,
      "in_graph": true,
      "trends_key": null,
      "trends_query": "三軒茶屋",
      "today_hints": {
        "default": "三角地帯の居酒屋へ",
        "high_td": "話題の店を1軒",
        "low_td": "坂道を短く散歩"
      },
      "tier": "curated"
    },
    {
      "id": "ikebukuro",
      "name": "池袋",
      "tagline": "サブカルと百貨店の街",
      "flavors": [
        "サブカル",
        "ショッピング"
      ],
      "hub_node_id": "g_003390",
      "lat": 35.729935,
      "lon": 139.71104,
      "in_graph": true,
      "tier": "curated",
      "trends_key": "ikebukuro",
      "trends_query": "池袋",
      "today_hints": {
        "default": "サブカルを1軒回る",
        "high_td": "話題のスポットをチェック",
        "low_td": "路地をのんびり歩く"
      }
    },
    {
      "id": "shinagawa",
      "name": "品川",
      "tagline": "港と駅前の街",
      "flavors": [
        "街歩き",
        "食"
      ],
      "hub_node_id": "g_004095",
      "lat": 35.628135,
      "lon": 139.738535,
      "in_graph": true,
      "tier": "curated",
      "trends_key": "shinagawa",
      "trends_query": "品川",
      "today_hints": {
        "default": "港を1軒回る",
        "high_td": "話題のスポットをチェック",
        "low_td": "路地をのんびり歩く"
      }
    },
    {
      "id": "meguro",
      "name": "目黒",
      "tagline": "坂道とカフェの街",
      "flavors": [
        "カフェ",
        "のんびり"
      ],
      "hub_node_id": "g_004072",
      "lat": 35.632792,
      "lon": 139.715682,
      "in_graph": true,
      "tier": "curated",
      "trends_key": "meguro",
      "trends_query": "目黒",
      "today_hints": {
        "default": "坂道を1軒回る",
        "high_td": "話題のスポットをチェック",
        "low_td": "路地をのんびり歩く"
      }
    },
    {
      "id": "gotanda",
      "name": "五反田",
      "tagline": "路地裏グルメの町",
      "flavors": [
        "食",
        "ナイト"
      ],
      "hub_node_id": "g_004110",
      "lat": 35.626585,
      "lon": 139.72394,
      "in_graph": true,
      "tier": "curated",
      "trends_key": "gotanda",
      "trends_query": "五反田",
      "today_hints": {
        "default": "五反田を散歩",
        "high_td": "話題のスポットをチェック",
        "low_td": "路地をのんびり歩く"
      }
    },
    {
      "id": "kitasenju",
      "name": "北千住",
      "tagline": "下町とアーケード",
      "flavors": [
        "下町",
        "街歩き"
      ],
      "hub_node_id": "g_003260",
      "lat": 35.749468,
      "lon": 139.804975,
      "in_graph": true,
      "tier": "curated",
      "trends_key": null,
      "trends_query": "北千住",
      "today_hints": {
        "default": "下町を1軒回る",
        "high_td": "話題のスポットをチェック",
        "low_td": "路地をのんびり歩く"
      }
    },
    {
      "id": "kiyosumi",
      "name": "清澄白河",
      "tagline": "倉庫とカフェの街",
      "flavors": [
        "カフェ",
        "アート"
      ],
      "hub_node_id": "g_003754",
      "lat": 35.682567,
      "lon": 139.799198,
      "in_graph": true,
      "tier": "curated",
      "trends_key": null,
      "trends_query": "清澄白河",
      "today_hints": {
        "default": "倉庫を1軒回る",
        "high_td": "話題のスポットをチェック",
        "low_td": "路地をのんびり歩く"
      }
    },
    {
      "id": "tsukiji",
      "name": "築地",
      "tagline": "市場跡と食べ歩き",
      "flavors": [
        "食",
        "街歩き"
      ],
      "hub_node_id": "g_003860",
      "lat": 35.667985,
      "lon": 139.772548,
      "in_graph": true,
      "tier": "curated",
      "trends_key": null,
      "trends_query": "築地",
      "today_hints": {
        "default": "市場跡を1軒回る",
        "high_td": "話題のスポットをチェック",
        "low_td": "路地をのんびり歩く"
      }
    },
    {
      "id": "shimbashi",
      "name": "新橋",
      "tagline": "ビジネス街と居酒屋",
      "flavors": [
        "食",
        "ナイト"
      ],
      "hub_node_id": "g_003872",
      "lat": 35.665995,
      "lon": 139.758932,
      "in_graph": true,
      "tier": "curated",
      "trends_key": "shimbashi",
      "trends_query": "新橋",
      "today_hints": {
        "default": "ビジネス街を1軒回る",
        "high_td": "話題のスポットをチェック",
        "low_td": "路地をのんびり歩く"
      }
    },
    {
      "id": "yurakucho",
      "name": "有楽町",
      "tagline": "高架下とビアホール",
      "flavors": [
        "食",
        "ナイト"
      ],
      "hub_node_id": "g_003795",
      "lat": 35.675962,
      "lon": 139.762342,
      "in_graph": true,
      "tier": "curated",
      "trends_key": "yurakucho",
      "trends_query": "有楽町",
      "today_hints": {
        "default": "高架下を1軒回る",
        "high_td": "話題のスポットをチェック",
        "low_td": "路地をのんびり歩く"
      }
    },
    {
      "id": "ochanomizu",
      "name": "御茶ノ水",
      "tagline": "楽器街と坂道",
      "flavors": [
        "サブカル",
        "街歩き"
      ],
      "hub_node_id": "g_003615",
      "lat": 35.700018,
      "lon": 139.764718,
      "in_graph": true,
      "tier": "curated",
      "trends_key": null,
      "trends_query": "御茶ノ水",
      "today_hints": {
        "default": "楽器街を1軒回る",
        "high_td": "話題のスポットをチェック",
        "low_td": "路地をのんびり歩く"
      }
    },
    {
      "id": "kanda",
      "name": "神田",
      "tagline": "古書店と学生街",
      "flavors": [
        "書店",
        "食"
      ],
      "hub_node_id": "g_003677",
      "lat": 35.692742,
      "lon": 139.770882,
      "in_graph": true,
      "tier": "curated",
      "trends_key": "kanda",
      "trends_query": "神田",
      "today_hints": {
        "default": "古書店を1軒回る",
        "high_td": "話題のスポットをチェック",
        "low_td": "路地をのんびり歩く"
      }
    },
    {
      "id": "takadanobaba",
      "name": "高田馬場",
      "tagline": "ラーメンと学生の街",
      "flavors": [
        "食",
        "賑わい"
      ],
      "hub_node_id": "g_003508",
      "lat": 35.713296,
      "lon": 139.704505,
      "in_graph": true,
      "tier": "curated",
      "trends_key": "takadanobaba",
      "trends_query": "高田馬場",
      "today_hints": {
        "default": "ラーメンを1軒回る",
        "high_td": "話題のスポットをチェック",
        "low_td": "路地をのんびり歩く"
      }
    },
    {
      "id": "mejiro",
      "name": "目白",
      "tagline": "閑静な住宅街の散歩",
      "flavors": [
        "のんびり",
        "街歩き"
      ],
      "hub_node_id": "g_003470",
      "lat": 35.72039,
      "lon": 139.70628,
      "in_graph": true,
      "tier": "curated",
      "trends_key": "mejiro",
      "trends_query": "目白",
      "today_hints": {
        "default": "目白を散歩",
        "high_td": "話題のスポットをチェック",
        "low_td": "路地をのんびり歩く"
      }
    },
    {
      "id": "sugamo",
      "name": "巣鴨",
      "tagline": "地蔵通りと温泉",
      "flavors": [
        "下町",
        "のんびり"
      ],
      "hub_node_id": "g_003354",
      "lat": 35.73375,
      "lon": 139.739193,
      "in_graph": true,
      "tier": "curated",
      "trends_key": "sugamo",
      "trends_query": "巣鴨",
      "today_hints": {
        "default": "地蔵通りを1軒回る",
        "high_td": "話題のスポットをチェック",
        "low_td": "路地をのんびり歩く"
      }
    },
    {
      "id": "futakotamagawa",
      "name": "二子玉川",
      "tagline": "河川とモールの街",
      "flavors": [
        "のんびり",
        "ショッピング"
      ],
      "hub_node_id": "g_004177",
      "lat": 35.611515,
      "lon": 139.626494,
      "in_graph": true,
      "tier": "curated",
      "trends_key": null,
      "trends_query": "二子玉川",
      "today_hints": {
        "default": "河川を1軒回る",
        "high_td": "話題のスポットをチェック",
        "low_td": "路地をのんびり歩く"
      }
    },
    {
      "id": "ogikubo",
      "name": "荻窪",
      "tagline": "ラーメンと商店街",
      "flavors": [
        "食",
        "下町"
      ],
      "hub_node_id": "g_003575",
      "lat": 35.704302,
      "lon": 139.620002,
      "in_graph": true,
      "tier": "curated",
      "trends_key": null,
      "trends_query": "荻窪",
      "today_hints": {
        "default": "ラーメンを1軒回る",
        "high_td": "話題のスポットをチェック",
        "low_td": "路地をのんびり歩く"
      }
    },
    {
      "id": "asagaya",
      "name": "阿佐ヶ谷",
      "tagline": "ジャズとパールロード",
      "flavors": [
        "サブカル",
        "ライブ"
      ],
      "hub_node_id": "g_003574",
      "lat": 35.704887,
      "lon": 139.636257,
      "in_graph": true,
      "tier": "curated",
      "trends_key": null,
      "trends_query": "阿佐ヶ谷",
      "today_hints": {
        "default": "ジャズを1軒回る",
        "high_td": "話題のスポットをチェック",
        "low_td": "路地をのんびり歩く"
      }
    },
    {
      "id": "gakuenmae",
      "name": "学芸大学",
      "tagline": "坂道カフェの街",
      "flavors": [
        "カフェ",
        "のんびり"
      ],
      "hub_node_id": "g_004094",
      "lat": 35.62877,
      "lon": 139.68524,
      "in_graph": true,
      "tier": "curated",
      "trends_key": null,
      "trends_query": "学芸大学",
      "today_hints": {
        "default": "学芸大学を散歩",
        "high_td": "話題のスポットをチェック",
        "low_td": "路地をのんびり歩く"
      }
    },
    {
      "id": "yutenji",
      "name": "祐天寺",
      "tagline": "坂と小さな店",
      "flavors": [
        "カフェ",
        "のんびり"
      ],
      "hub_node_id": "g_004050",
      "lat": 35.63717,
      "lon": 139.69075,
      "in_graph": true,
      "tier": "curated",
      "trends_key": null,
      "trends_query": "祐天寺",
      "today_hints": {
        "default": "坂を1軒回る",
        "high_td": "話題のスポットをチェック",
        "low_td": "路地をのんびり歩く"
      }
    },
    {
      "id": "komazawa",
      "name": "駒沢大学",
      "tagline": "公園と学生の街",
      "flavors": [
        "公園",
        "のんびり"
      ],
      "hub_node_id": "g_004069",
      "lat": 35.633035,
      "lon": 139.660965,
      "in_graph": true,
      "tier": "curated",
      "trends_key": null,
      "trends_query": "駒沢大学",
      "today_hints": {
        "default": "公園を1軒回る",
        "high_td": "話題のスポットをチェック",
        "low_td": "路地をのんびり歩く"
      }
    },
    {
      "id": "nishinippori",
      "name": "西日暮里",
      "tagline": "繊維街と坂道",
      "flavors": [
        "街歩き",
        "下町"
      ],
      "hub_node_id": "g_003368",
      "lat": 35.73239,
      "lon": 139.766963,
      "in_graph": true,
      "tier": "curated",
      "trends_key": "nishinippori",
      "trends_query": "西日暮里",
      "today_hints": {
        "default": "繊維街を1軒回る",
        "high_td": "話題のスポットをチェック",
        "low_td": "路地をのんびり歩く"
      }
    },
    {
      "id": "komagome",
      "name": "駒込",
      "tagline": "庭園と坂道",
      "flavors": [
        "のんびり",
        "歴史"
      ],
      "hub_node_id": "g_003343",
      "lat": 35.736519,
      "lon": 139.747626,
      "in_graph": true,
      "tier": "curated",
      "trends_key": "komagome",
      "trends_query": "駒込",
      "today_hints": {
        "default": "庭園を1軒回る",
        "high_td": "話題のスポットをチェック",
        "low_td": "路地をのんびり歩く"
      }
    },
    {
      "id": "yotsuya",
      "name": "四ツ谷",
      "tagline": "路地裏と居酒屋",
      "flavors": [
        "食",
        "ナイト"
      ],
      "hub_node_id": "g_003728",
      "lat": 35.68532,
      "lon": 139.730087,
      "in_graph": true,
      "tier": "curated",
      "trends_key": null,
      "trends_query": "四ツ谷",
      "today_hints": {
        "default": "路地裏を1軒回る",
        "high_td": "話題のスポットをチェック",
        "low_td": "路地をのんびり歩く"
      }
    },
    {
      "id": "sendagaya",
      "name": "千駄ヶ谷",
      "tagline": "国技館と裏路地",
      "flavors": [
        "歴史",
        "食"
      ],
      "hub_node_id": "g_003767",
      "lat": 35.681207,
      "lon": 139.711453,
      "in_graph": true,
      "tier": "curated",
      "trends_key": null,
      "trends_query": "千駄ヶ谷",
      "today_hints": {
        "default": "国技館を1軒回る",
        "high_td": "話題のスポットをチェック",
        "low_td": "路地をのんびり歩く"
      }
    },
    {
      "id": "toranomon",
      "name": "虎ノ門",
      "tagline": "ビジネス街の高層ビュー",
      "flavors": [
        "街歩き",
        "夜景"
      ],
      "hub_node_id": "g_003835",
      "lat": 35.67016,
      "lon": 139.75012,
      "in_graph": true,
      "tier": "curated",
      "trends_key": null,
      "trends_query": "虎ノ門",
      "today_hints": {
        "default": "虎ノ門を散歩",
        "high_td": "話題のスポットをチェック",
        "low_td": "路地をのんびり歩く"
      }
    },
    {
      "id": "azabujuban",
      "name": "麻布十番",
      "tagline": "商店街とスイーツ",
      "flavors": [
        "食",
        "街歩き"
      ],
      "hub_node_id": "g_003941",
      "lat": 35.65565,
      "lon": 139.736575,
      "in_graph": true,
      "tier": "curated",
      "trends_key": null,
      "trends_query": "麻布十番",
      "today_hints": {
        "default": "商店街を1軒回る",
        "high_td": "話題のスポットをチェック",
        "low_td": "路地をのんびり歩く"
      }
    },
    {
      "id": "shirokanedai",
      "name": "白金高輪",
      "tagline": "坂道と洋館の街",
      "flavors": [
        "街歩き",
        "のんびり"
      ],
      "hub_node_id": "g_004025",
      "lat": 35.643145,
      "lon": 139.734285,
      "in_graph": true,
      "tier": "curated",
      "trends_key": null,
      "trends_query": "白金高輪",
      "today_hints": {
        "default": "坂道を1軒回る",
        "high_td": "話題のスポットをチェック",
        "low_td": "路地をのんびり歩く"
      }
    },
    {
      "id": "oimachi",
      "name": "大井町",
      "tagline": "品川寄りの下町",
      "flavors": [
        "下町",
        "街歩き"
      ],
      "hub_node_id": "g_004197",
      "lat": 35.607551,
      "lon": 139.734183,
      "in_graph": true,
      "tier": "curated",
      "trends_key": null,
      "trends_query": "大井町",
      "today_hints": {
        "default": "大井町を散歩",
        "high_td": "話題のスポットをチェック",
        "low_td": "路地をのんびり歩く"
      }
    },
    {
      "id": "osaki",
      "name": "大崎",
      "tagline": "再開発とオフィス街",
      "flavors": [
        "街歩き",
        "夜景"
      ],
      "hub_node_id": "g_004135",
      "lat": 35.619848,
      "lon": 139.72807,
      "in_graph": true,
      "tier": "curated",
      "trends_key": "osaki",
      "trends_query": "大崎",
      "today_hints": {
        "default": "再開発を1軒回る",
        "high_td": "話題のスポットをチェック",
        "low_td": "路地をのんびり歩く"
      }
    },
    {
      "id": "ouji",
      "name": "王子",
      "tagline": "荒川と下町",
      "flavors": [
        "下町",
        "公園"
      ],
      "hub_node_id": "g_003236",
      "lat": 35.754387,
      "lon": 139.737411,
      "in_graph": true,
      "tier": "curated",
      "trends_key": null,
      "trends_query": "王子",
      "today_hints": {
        "default": "荒川を1軒回る",
        "high_td": "話題のスポットをチェック",
        "low_td": "路地をのんびり歩く"
      }
    },
    {
      "id": "nezu",
      "name": "根津",
      "tagline": "神社と谷中近く",
      "flavors": [
        "歴史",
        "のんびり"
      ],
      "hub_node_id": "g_003483",
      "lat": 35.717325,
      "lon": 139.76575,
      "in_graph": true,
      "tier": "curated",
      "trends_key": null,
      "trends_query": "根津",
      "today_hints": {
        "default": "神社を1軒回る",
        "high_td": "話題のスポットをチェック",
        "low_td": "路地をのんびり歩く"
      }
    },
    {
      "id": "minowa",
      "name": "三ノ輪",
      "tagline": "浅草の裏手",
      "flavors": [
        "下町",
        "のんびり"
      ],
      "hub_node_id": "g_003399",
      "lat": 35.729285,
      "lon": 139.791165,
      "in_graph": true,
      "tier": "curated",
      "trends_key": null,
      "trends_query": "三ノ輪",
      "today_hints": {
        "default": "三ノ輪を散歩",
        "high_td": "話題のスポットをチェック",
        "low_td": "路地をのんびり歩く"
      }
    },
    {
      "id": "irya",
      "name": "入谷",
      "tagline": "ひょうたん島の路地",
      "flavors": [
        "下町",
        "のんびり"
      ],
      "hub_node_id": "g_003469",
      "lat": 35.720675,
      "lon": 139.78455,
      "in_graph": true,
      "tier": "curated",
      "trends_key": null,
      "trends_query": "入谷",
      "today_hints": {
        "default": "入谷を散歩",
        "high_td": "話題のスポットをチェック",
        "low_td": "路地をのんびり歩く"
      }
    },
    {
      "id": "iidabashi",
      "name": "飯田橋",
      "tagline": "神田川とラーメン",
      "flavors": [
        "食",
        "街歩き"
      ],
      "hub_node_id": "g_003595",
      "lat": 35.701512,
      "lon": 139.744607,
      "in_graph": true,
      "tier": "curated",
      "trends_key": null,
      "trends_query": "飯田橋",
      "today_hints": {
        "default": "神田川を1軒回る",
        "high_td": "話題のスポットをチェック",
        "low_td": "路地をのんびり歩く"
      }
    },
    {
      "id": "korakuen",
      "name": "後楽園",
      "tagline": "遊園地と大学街",
      "flavors": [
        "エンタメ",
        "街歩き"
      ],
      "hub_node_id": "g_003542",
      "lat": 35.707871,
      "lon": 139.751423,
      "in_graph": true,
      "tier": "curated",
      "trends_key": null,
      "trends_query": "後楽園",
      "today_hints": {
        "default": "遊園地を1軒回る",
        "high_td": "話題のスポットをチェック",
        "low_td": "路地をのんびり歩く"
      }
    },
    {
      "id": "myogadani",
      "name": "茗荷谷",
      "tagline": "坂道と閑静な街",
      "flavors": [
        "のんびり",
        "街歩き"
      ],
      "hub_node_id": "g_003484",
      "lat": 35.7172,
      "lon": 139.736895,
      "in_graph": true,
      "tier": "curated",
      "trends_key": null,
      "trends_query": "茗荷谷",
      "today_hints": {
        "default": "坂道を1軒回る",
        "high_td": "話題のスポットをチェック",
        "low_td": "路地をのんびり歩く"
      }
    },
    {
      "id": "kojimachi",
      "name": "麹町",
      "tagline": "半蔵門と歴史",
      "flavors": [
        "歴史",
        "街歩き"
      ],
      "hub_node_id": "g_003737",
      "lat": 35.684785,
      "lon": 139.73735,
      "in_graph": true,
      "tier": "curated",
      "trends_key": null,
      "trends_query": "麹町",
      "today_hints": {
        "default": "半蔵門を1軒回る",
        "high_td": "話題のスポットをチェック",
        "low_td": "路地をのんびり歩く"
      }
    },
    {
      "id": "ichigaya",
      "name": "市ヶ谷",
      "tagline": "護国神社と坂",
      "flavors": [
        "歴史",
        "街歩き"
      ],
      "hub_node_id": "g_003671",
      "lat": 35.692099,
      "lon": 139.736545,
      "in_graph": true,
      "tier": "curated",
      "trends_key": null,
      "trends_query": "市ヶ谷",
      "today_hints": {
        "default": "護国神社を1軒回る",
        "high_td": "話題のスポットをチェック",
        "low_td": "路地をのんびり歩く"
      }
    },
    {
      "id": "kudanshita",
      "name": "九段下",
      "tagline": "武道館と神楽坂近く",
      "flavors": [
        "歴史",
        "街歩き"
      ],
      "hub_node_id": "g_003657",
      "lat": 35.695708,
      "lon": 139.751228,
      "in_graph": true,
      "tier": "curated",
      "trends_key": null,
      "trends_query": "九段下",
      "today_hints": {
        "default": "武道館を1軒回る",
        "high_td": "話題のスポットをチェック",
        "low_td": "路地をのんびり歩く"
      }
    },
    {
      "id": "tabata",
      "name": "田端",
      "tagline": "住宅街の坂道",
      "flavors": [
        "のんびり",
        "街歩き"
      ],
      "hub_node_id": "g_003335",
      "lat": 35.737475,
      "lon": 139.761575,
      "in_graph": true,
      "tier": "curated",
      "trends_key": "tabata",
      "trends_query": "田端",
      "today_hints": {
        "default": "田端を散歩",
        "high_td": "話題のスポットをチェック",
        "low_td": "路地をのんびり歩く"
      }
    },
    {
      "id": "otsuka",
      "name": "大塚",
      "tagline": "商店街と温泉",
      "flavors": [
        "下町",
        "食"
      ],
      "hub_node_id": "g_003375",
      "lat": 35.731785,
      "lon": 139.72794,
      "in_graph": true,
      "tier": "curated",
      "trends_key": "otsuka",
      "trends_query": "大塚",
      "today_hints": {
        "default": "商店街を1軒回る",
        "high_td": "話題のスポットをチェック",
        "low_td": "路地をのんびり歩く"
      }
    },
    {
      "id": "higashinakano",
      "name": "東中野",
      "tagline": "古着とライブバー",
      "flavors": [
        "サブカル",
        "古着"
      ],
      "hub_node_id": "g_003549",
      "lat": 35.70681,
      "lon": 139.684165,
      "in_graph": true,
      "tier": "curated",
      "trends_key": null,
      "trends_query": "東中野",
      "today_hints": {
        "default": "古着を1軒回る",
        "high_td": "話題のスポットをチェック",
        "low_td": "路地をのんびり歩く"
      }
    },
    {
      "id": "nakanosakaue",
      "name": "中野坂上",
      "tagline": "ビル街とランチ",
      "flavors": [
        "街歩き",
        "食"
      ],
      "hub_node_id": "g_003643",
      "lat": 35.697348,
      "lon": 139.682457,
      "in_graph": true,
      "tier": "curated",
      "trends_key": null,
      "trends_query": "中野坂上",
      "today_hints": {
        "default": "ビル街を1軒回る",
        "high_td": "話題のスポットをチェック",
        "low_td": "路地をのんびり歩く"
      }
    },
    {
      "id": "shiodome",
      "name": "汐留",
      "tagline": "高層ビューと浜離宮",
      "flavors": [
        "夜景",
        "街歩き"
      ],
      "hub_node_id": "g_003887",
      "lat": 35.663988,
      "lon": 139.760704,
      "in_graph": true,
      "tier": "curated",
      "trends_key": null,
      "trends_query": "汐留",
      "today_hints": {
        "default": "高層ビューを1軒回る",
        "high_td": "話題のスポットをチェック",
        "low_td": "路地をのんびり歩く"
      }
    },
    {
      "id": "takanawadai",
      "name": "高輪台",
      "tagline": "坂道と閑静な街",
      "flavors": [
        "のんびり",
        "街歩き"
      ],
      "hub_node_id": "g_004079",
      "lat": 35.631545,
      "lon": 139.730192,
      "in_graph": true,
      "tier": "curated",
      "trends_key": null,
      "trends_query": "高輪台",
      "today_hints": {
        "default": "坂道を1軒回る",
        "high_td": "話題のスポットをチェック",
        "low_td": "路地をのんびり歩く"
      }
    },
    {
      "id": "shinjuku",
      "name": "新宿",
      "tagline": "摩天楼と歓楽街",
      "flavors": [
        "賑わい",
        "ナイト"
      ],
      "hub_node_id": "g_003700",
      "lat": 35.689796,
      "lon": 139.69993,
      "in_graph": true,
      "tier": "curated",
      "trends_key": "shinjuku",
      "trends_query": "新宿",
      "today_hints": {
        "default": "摩天楼を1軒回る",
        "high_td": "話題のスポットをチェック",
        "low_td": "路地をのんびり歩く"
      }
    },
    {
      "id": "mitaka",
      "name": "三鷹",
      "tagline": "井の頭寄りの街",
      "flavors": [
        "のんびり",
        "公園"
      ],
      "hub_node_id": "g_003587",
      "lat": 35.702694,
      "lon": 139.560708,
      "in_graph": true,
      "tier": "curated",
      "trends_key": null,
      "trends_query": "三鷹",
      "today_hints": {
        "default": "三鷹を散歩",
        "high_td": "話題のスポットをチェック",
        "low_td": "路地をのんびり歩く"
      }
    },
    {
      "id": "yoyogihara",
      "name": "代々木上原",
      "tagline": "カフェと住宅街",
      "flavors": [
        "カフェ",
        "のんびり"
      ],
      "hub_node_id": "g_003847",
      "lat": 35.668897,
      "lon": 139.679632,
      "in_graph": true,
      "tier": "curated",
      "trends_key": null,
      "trends_query": "代々木上原",
      "today_hints": {
        "default": "カフェを1軒回る",
        "high_td": "話題のスポットをチェック",
        "low_td": "路地をのんびり歩く"
      }
    },
    {
      "id": "yoyogikoen",
      "name": "代々木公園",
      "tagline": "公園とカフェ",
      "flavors": [
        "公園",
        "のんびり"
      ],
      "hub_node_id": "g_003845",
      "lat": 35.669123,
      "lon": 139.68965,
      "in_graph": true,
      "tier": "curated",
      "trends_key": null,
      "trends_query": "代々木公園",
      "today_hints": {
        "default": "公園を1軒回る",
        "high_td": "話題のスポットをチェック",
        "low_td": "路地をのんびり歩く"
      }
    },
    {
      "id": "hachobori",
      "name": "八丁堀",
      "tagline": "運河とビジネス街",
      "flavors": [
        "街歩き",
        "歴史"
      ],
      "hub_node_id": "g_003797",
      "lat": 35.675065,
      "lon": 139.777805,
      "in_graph": true,
      "tier": "curated",
      "trends_key": null,
      "trends_query": "八丁堀",
      "today_hints": {
        "default": "運河を1軒回る",
        "high_td": "話題のスポットをチェック",
        "low_td": "路地をのんびり歩く"
      }
    },
    {
      "id": "kayabacho",
      "name": "茅場町",
      "tagline": "日本橋寄りのオフィス街",
      "flavors": [
        "街歩き",
        "食"
      ],
      "hub_node_id": "g_003773",
      "lat": 35.67973,
      "lon": 139.779498,
      "in_graph": true,
      "tier": "curated",
      "trends_key": null,
      "trends_query": "茅場町",
      "today_hints": {
        "default": "茅場町を散歩",
        "high_td": "話題のスポットをチェック",
        "low_td": "路地をのんびり歩く"
      }
    },
    {
      "id": "kasumigaseki",
      "name": "霞ヶ関",
      "tagline": "官公庁と並木",
      "flavors": [
        "街歩き",
        "歴史"
      ],
      "hub_node_id": "g_003805",
      "lat": 35.673557,
      "lon": 139.751837,
      "in_graph": true,
      "tier": "curated",
      "trends_key": null,
      "trends_query": "霞ヶ関",
      "today_hints": {
        "default": "官公庁を1軒回る",
        "high_td": "話題のスポットをチェック",
        "low_td": "路地をのんびり歩く"
      }
    },
    {
      "id": "nagatacho",
      "name": "永田町",
      "tagline": "国会と坂道",
      "flavors": [
        "歴史",
        "街歩き"
      ],
      "hub_node_id": "g_003782",
      "lat": 35.678214,
      "lon": 139.740035,
      "in_graph": true,
      "tier": "curated",
      "trends_key": null,
      "trends_query": "永田町",
      "today_hints": {
        "default": "国会を1軒回る",
        "high_td": "話題のスポットをチェック",
        "low_td": "路地をのんびり歩く"
      }
    },
    {
      "id": "shirokanetakanawa",
      "name": "白金台",
      "tagline": "坂と高級住宅街",
      "flavors": [
        "のんびり",
        "街歩き"
      ],
      "hub_node_id": "g_004044",
      "lat": 35.63777,
      "lon": 139.72586,
      "in_graph": true,
      "tier": "curated",
      "trends_key": null,
      "trends_query": "白金台",
      "today_hints": {
        "default": "坂を1軒回る",
        "high_td": "話題のスポットをチェック",
        "low_td": "路地をのんびり歩く"
      }
    },
    {
      "id": "yoga",
      "name": "用賀",
      "tagline": "田園都市線の住宅街",
      "flavors": [
        "のんびり",
        "街歩き"
      ],
      "hub_node_id": "g_004109",
      "lat": 35.62658,
      "lon": 139.634247,
      "in_graph": true,
      "tier": "curated",
      "trends_key": null,
      "trends_query": "用賀",
      "today_hints": {
        "default": "用賀を散歩",
        "high_td": "話題のスポットをチェック",
        "low_td": "路地をのんびり歩く"
      }
    },
    {
      "id": "gaiemmae",
      "name": "外苑前",
      "tagline": "競技場と並木",
      "flavors": [
        "街歩き",
        "公園"
      ],
      "hub_node_id": "g_003834",
      "lat": 35.670375,
      "lon": 139.717825,
      "in_graph": true,
      "tier": "curated",
      "trends_key": null,
      "trends_query": "外苑前",
      "today_hints": {
        "default": "競技場を1軒回る",
        "high_td": "話題のスポットをチェック",
        "low_td": "路地をのんびり歩く"
      }
    },
    {
      "id": "sangubashi",
      "name": "参宮橋",
      "tagline": "小田急沿いの坂",
      "flavors": [
        "のんびり",
        "街歩き"
      ],
      "hub_node_id": "g_003778",
      "lat": 35.678605,
      "lon": 139.693585,
      "in_graph": true,
      "tier": "curated",
      "trends_key": null,
      "trends_query": "参宮橋",
      "today_hints": {
        "default": "参宮橋を散歩",
        "high_td": "話題のスポットをチェック",
        "low_td": "路地をのんびり歩く"
      }
    },
    {
      "id": "kitasando",
      "name": "北参道",
      "tagline": "裏参道のカフェ",
      "flavors": [
        "カフェ",
        "街歩き"
      ],
      "hub_node_id": "g_003780",
      "lat": 35.678237,
      "lon": 139.705643,
      "in_graph": true,
      "tier": "curated",
      "trends_key": null,
      "trends_query": "北参道",
      "today_hints": {
        "default": "北参道を散歩",
        "high_td": "話題のスポットをチェック",
        "low_td": "路地をのんびり歩く"
      }
    },
    {
      "id": "senzoku",
      "name": "千石",
      "tagline": "文京の静かな坂",
      "flavors": [
        "のんびり",
        "街歩き"
      ],
      "hub_node_id": "g_003415",
      "lat": 35.727965,
      "lon": 139.744745,
      "in_graph": true,
      "tier": "curated",
      "trends_key": null,
      "trends_query": "千石",
      "today_hints": {
        "default": "千石を散歩",
        "high_td": "話題のスポットをチェック",
        "low_td": "路地をのんびり歩く"
      }
    },
    {
      "id": "sendagi",
      "name": "千駄木",
      "tagline": "谷中に近い下町",
      "flavors": [
        "下町",
        "のんびり"
      ],
      "hub_node_id": "g_003434",
      "lat": 35.725988,
      "lon": 139.763375,
      "in_graph": true,
      "tier": "curated",
      "trends_key": null,
      "trends_query": "千駄木",
      "today_hints": {
        "default": "千駄木を散歩",
        "high_td": "話題のスポットをチェック",
        "low_td": "路地をのんびり歩く"
      }
    },
    {
      "id": "asakusabashi",
      "name": "浅草橋",
      "tagline": "問屋街と下町",
      "flavors": [
        "下町",
        "街歩き"
      ],
      "hub_node_id": "g_003636",
      "lat": 35.697605,
      "lon": 139.786455,
      "in_graph": true,
      "tier": "curated",
      "trends_key": null,
      "trends_query": "浅草橋",
      "today_hints": {
        "default": "問屋街を1軒回る",
        "high_td": "話題のスポットをチェック",
        "low_td": "路地をのんびり歩く"
      }
    },
    {
      "id": "kuramae",
      "name": "蔵前",
      "tagline": "職人街とカフェ",
      "flavors": [
        "カフェ",
        "下町"
      ],
      "hub_node_id": "g_003571",
      "lat": 35.704407,
      "lon": 139.791679,
      "in_graph": true,
      "tier": "curated",
      "trends_key": null,
      "trends_query": "蔵前",
      "today_hints": {
        "default": "職人街を1軒回る",
        "high_td": "話題のスポットをチェック",
        "low_td": "路地をのんびり歩く"
      }
    },
    {
      "id": "ningyocho",
      "name": "人形町",
      "tagline": "老舗と下町",
      "flavors": [
        "歴史",
        "食"
      ],
      "hub_node_id": "g_003721",
      "lat": 35.686173,
      "lon": 139.782267,
      "in_graph": true,
      "tier": "curated",
      "trends_key": null,
      "trends_query": "人形町",
      "today_hints": {
        "default": "老舗を1軒回る",
        "high_td": "話題のスポットをチェック",
        "low_td": "路地をのんびり歩く"
      }
    },
    {
      "id": "hamadayama",
      "name": "浜田山",
      "tagline": "閑静な坂道",
      "flavors": [
        "のんびり",
        "街歩き"
      ],
      "hub_node_id": "g_003763",
      "lat": 35.681575,
      "lon": 139.627575,
      "in_graph": true,
      "tier": "curated",
      "trends_key": null,
      "trends_query": "浜田山",
      "today_hints": {
        "default": "浜田山を散歩",
        "high_td": "話題のスポットをチェック",
        "low_td": "路地をのんびり歩く"
      }
    },
    {
      "id": "nishiogikubo",
      "name": "西荻窪",
      "tagline": "古着とライブ",
      "flavors": [
        "サブカル",
        "古着"
      ],
      "hub_node_id": "g_003579",
      "lat": 35.703798,
      "lon": 139.599705,
      "in_graph": true,
      "tier": "curated",
      "trends_key": null,
      "trends_query": "西荻窪",
      "today_hints": {
        "default": "古着を1軒回る",
        "high_td": "話題のスポットをチェック",
        "low_td": "路地をのんびり歩く"
      }
    },
    {
      "id": "seijogakuen",
      "name": "成城学園前",
      "tagline": "緑の住宅街",
      "flavors": [
        "のんびり",
        "街歩き"
      ],
      "hub_node_id": "g_004036",
      "lat": 35.640135,
      "lon": 139.59908,
      "in_graph": true,
      "tier": "curated",
      "trends_key": null,
      "trends_query": "成城学園前",
      "today_hints": {
        "default": "成城学園前を散歩",
        "high_td": "話題のスポットをチェック",
        "low_td": "路地をのんびり歩く"
      }
    },
    {
      "id": "okachimachi",
      "name": "御徒町",
      "tagline": "アメ横の食べ歩き",
      "flavors": [
        "食",
        "下町"
      ],
      "hub_node_id": "g_003556",
      "lat": 35.707008,
      "lon": 139.78187,
      "in_graph": true,
      "tier": "curated",
      "trends_key": "okachimachi",
      "trends_query": "御徒町",
      "today_hints": {
        "default": "御徒町を散歩",
        "high_td": "話題のスポットをチェック",
        "low_td": "路地をのんびり歩く"
      }
    }
  ]
}
