{
  "version": "0.1",
  "note": "寄り町マスタ。trends_key は td_trends_cache.json の駅ID（代理）。today_hints は Google Trends 前日比で切り替え。",
  "departure_shortcuts": [
    {
      "label": "新宿",
      "node_id": "g_003700",
      "area": "新宿"
    },
    {
      "label": "渋谷",
      "node_id": "g_003922",
      "area": "渋谷"
    },
    {
      "label": "東京",
      "node_id": "g_003766",
      "area": "東京"
    },
    {
      "label": "池袋",
      "node_id": "g_003390",
      "area": "池袋"
    },
    {
      "label": "品川",
      "node_id": "g_004095",
      "area": "品川"
    }
  ],
  "towns": [
    {
      "id": "shimokitazawa",
      "name": "下北沢",
      "tagline": "古着とライブの町",
      "flavors": [
        "サブカル",
        "古着",
        "ライブ"
      ],
      "hub_node_id": "g_003908",
      "lat": 35.661772,
      "lon": 139.668306,
      "in_graph": true,
      "trends_key": null,
      "trends_query": "下北沢",
      "today_hints": {
        "default": "古着屋とライブハウスを1軒",
        "high_td": "話題のイベント・新店をチェック",
        "low_td": "路地をのんびり散歩"
      }
    },
    {
      "id": "nakano",
      "name": "中野",
      "tagline": "ブックカフェとサブカル",
      "flavors": [
        "書店",
        "サブカル"
      ],
      "hub_node_id": "g_003568",
      "lat": 35.705765,
      "lon": 139.665835,
      "in_graph": true,
      "trends_key": null,
      "trends_query": "中野",
      "today_hints": {
        "default": "ブックカフェで一冊探す",
        "high_td": "サブカルスポットを1軒回る",
        "low_td": "中野坂上までゆっくり歩く"
      }
    },
    {
      "id": "kichijoji",
      "name": "吉祥寺",
      "tagline": "公園と雑貨の町",
      "flavors": [
        "のんびり",
        "雑貨",
        "カフェ"
      ],
      "hub_node_id": "g_003584",
      "lat": 35.703119,
      "lon": 139.579749,
      "in_graph": true,
      "trends_key": null,
      "trends_query": "吉祥寺",
      "today_hints": {
        "default": "井の頭公園でひと息",
        "high_td": "話題の雑貨店へ寄る",
        "low_td": "公園ベンチで夕方まで"
      }
    },
    {
      "id": "yanaka",
      "name": "谷中",
      "tagline": "下町と猫の路地",
      "flavors": [
        "下町",
        "のんびり"
      ],
      "hub_node_id": "g_003505",
      "lat": 35.720278,
      "lon": 139.7625,
      "in_graph": true,
      "trends_key": null,
      "trends_query": "谷中",
      "today_hints": {
        "default": "猫の路地を歩く",
        "high_td": "谷中銀座をブラブラ",
        "low_td": "静かな坂道をのんびり"
      }
    },
    {
      "id": "asakusa",
      "name": "浅草",
      "tagline": "雷門と川沿い",
      "flavors": [
        "下町",
        "観光"
      ],
      "hub_node_id": "g_003522",
      "lat": 35.710763,
      "lon": 139.796697,
      "in_graph": true,
      "trends_key": "oshiage",
      "trends_query": "浅草",
      "today_hints": {
        "default": "雷門から仲見世を歩く",
        "high_td": "話題のスポットをチェック",
        "low_td": "川沿いを静かに散歩"
      }
    },
    {
      "id": "ueno",
      "name": "上野",
      "tagline": "公園とアメ横",
      "flavors": [
        "下町",
        "公園"
      ],
      "hub_node_id": "g_003505",
      "lat": 35.713768,
      "lon": 139.777254,
      "in_graph": true,
      "trends_key": "ueno",
      "trends_query": "上野",
      "today_hints": {
        "default": "公園とアメ横を回る",
        "high_td": "話題のイベントを覗く",
        "low_td": "公園でゆっくり過ごす"
      }
    },
    {
      "id": "akihabara",
      "name": "秋葉原",
      "tagline": "電気街とポップカルチャー",
      "flavors": [
        "サブカル",
        "賑わい"
      ],
      "hub_node_id": "g_003624",
      "lat": 35.698619,
      "lon": 139.773185,
      "in_graph": true,
      "trends_key": "akihabara",
      "trends_query": "秋葉原",
      "today_hints": {
        "default": "電気街を1周",
        "high_td": "話題のポップカルチャーをチェック",
        "low_td": "混雑前に裏通りを歩く"
      }
    },
    {
      "id": "kagurazaka",
      "name": "神楽坂",
      "tagline": "坂道と小料理",
      "flavors": [
        "のんびり",
        "食"
      ],
      "hub_node_id": "g_003578",
      "lat": 35.701989,
      "lon": 139.737679,
      "in_graph": true,
      "trends_key": null,
      "trends_query": "神楽坂",
      "today_hints": {
        "default": "坂道と小料理屋を1軒",
        "high_td": "話題の店を1軒予約",
        "low_td": "石畳をのんびり歩く"
      }
    },
    {
      "id": "ginza",
      "name": "銀座",
      "tagline": "街並みとデパート",
      "flavors": [
        "街歩き",
        "ショッピング"
      ],
      "hub_node_id": "g_003823",
      "lat": 35.671989,
      "lon": 139.763965,
      "in_graph": true,
      "trends_key": "ginza",
      "trends_query": "銀座",
      "today_hints": {
        "default": "並木通りを歩く",
        "high_td": "話題のショップを覗く",
        "low_td": "路地裏カフェで一息"
      }
    },
    {
      "id": "nihombashi",
      "name": "日本橋",
      "tagline": "老舗とビジネス街",
      "flavors": [
        "街歩き",
        "歴史"
      ],
      "hub_node_id": "g_003756",
      "lat": 35.681839,
      "lon": 139.774273,
      "in_graph": true,
      "trends_key": null,
      "trends_query": "日本橋",
      "today_hints": {
        "default": "老舗と橋の景色を見る",
        "high_td": "話題のエリアをチェック",
        "low_td": "ビジネス街の静かな路地へ"
      }
    },
    {
      "id": "tokyo",
      "name": "東京駅周辺",
      "tagline": "赤レンガとグランルーフ",
      "flavors": [
        "街歩き",
        "歴史"
      ],
      "hub_node_id": "g_003766",
      "lat": 35.681236,
      "lon": 139.767125,
      "in_graph": true,
      "trends_key": "tokyo",
      "trends_query": "東京駅",
      "today_hints": {
        "default": "赤レンガ駅舎を眺める",
        "high_td": "グランルーフの話題店へ",
        "low_td": "駅周辺を短く散歩"
      }
    },
    {
      "id": "harajuku",
      "name": "原宿",
      "tagline": "竹下通りと裏原",
      "flavors": [
        "若者文化",
        "ファッション"
      ],
      "hub_node_id": "g_003828",
      "lat": 35.670646,
      "lon": 139.702587,
      "in_graph": true,
      "trends_key": "harajuku",
      "trends_query": "原宿",
      "today_hints": {
        "default": "竹下通りと裏原を歩く",
        "high_td": "話題のファッション店へ",
        "low_td": "代々木公園側を散歩"
      }
    },
    {
      "id": "omotesando",
      "name": "表参道",
      "tagline": "ケヤキ並木とブティック",
      "flavors": [
        "街歩き",
        "ファッション"
      ],
      "hub_node_id": "g_003883",
      "lat": 35.665247,
      "lon": 139.712097,
      "in_graph": true,
      "trends_key": "omotesando",
      "trends_query": "表参道",
      "today_hints": {
        "default": "ケヤキ並木を歩く",
        "high_td": "話題のブティックを覗く",
        "low_td": "カフェでゆっくり"
      }
    },
    {
      "id": "shibuya",
      "name": "渋谷",
      "tagline": "スクランブルと音楽",
      "flavors": [
        "賑わい",
        "ナイト"
      ],
      "hub_node_id": "g_003922",
      "lat": 35.658034,
      "lon": 139.701636,
      "in_graph": true,
      "trends_key": "shibuya",
      "trends_query": "渋谷",
      "today_hints": {
        "default": "スクランブル周辺を歩く",
        "high_td": "いま話題のスポットへ",
        "low_td": "混雑前に路地を散歩"
      }
    },
    {
      "id": "ebisu",
      "name": "恵比寿",
      "tagline": "ビアホールと居酒屋横丁",
      "flavors": [
        "食",
        "ナイト"
      ],
      "hub_node_id": "g_003991",
      "lat": 35.646685,
      "lon": 139.710026,
      "in_graph": true,
      "trends_key": "ebisu",
      "trends_query": "恵比寿",
      "today_hints": {
        "default": "居酒屋横丁で一杯",
        "high_td": "話題のビアホールへ",
        "low_td": "坂道をのんびり歩く"
      }
    },
    {
      "id": "nakameguro",
      "name": "中目黒",
      "tagline": "目黒川とカフェ",
      "flavors": [
        "カフェ",
        "のんびり"
      ],
      "hub_node_id": "g_004014",
      "lat": 35.644279,
      "lon": 139.698812,
      "in_graph": true,
      "trends_key": "nakameguro",
      "trends_query": "中目黒",
      "today_hints": {
        "default": "目黒川沿いのカフェへ",
        "high_td": "話題のカフェを1軒",
        "low_td": "川沿いを静かに歩く"
      }
    },
    {
      "id": "roppongi",
      "name": "六本木",
      "tagline": "美術館と夜景",
      "flavors": [
        "ナイト",
        "アート"
      ],
      "hub_node_id": "g_003892",
      "lat": 35.662836,
      "lon": 139.731443,
      "in_graph": true,
      "trends_key": "roppongi",
      "trends_query": "六本木",
      "today_hints": {
        "default": "美術館か夜景スポットへ",
        "high_td": "話題の展示・夜景をチェック",
        "low_td": "丘の上を短く散歩"
      }
    },
    {
      "id": "yoyogi",
      "name": "代々木",
      "tagline": "公園とライブハウス",
      "flavors": [
        "公園",
        "ライブ"
      ],
      "hub_node_id": "g_003743",
      "lat": 35.683061,
      "lon": 139.702042,
      "in_graph": true,
      "trends_key": "yoyogi",
      "trends_query": "代々木",
      "today_hints": {
        "default": "公園でひと休み",
        "high_td": "話題のライブ・イベントへ",
        "low_td": "公園のベンチで読書"
      }
    },
    {
      "id": "okubo",
      "name": "大久保",
      "tagline": "多国籍の食べ歩き",
      "flavors": [
        "食",
        "国際"
      ],
      "hub_node_id": "g_003700",
      "lat": 35.701432,
      "lon": 139.700464,
      "in_graph": true,
      "trends_key": "shinokubo",
      "trends_query": "大久保",
      "today_hints": {
        "default": "多国籍の食べ歩き",
        "high_td": "話題の韓国街グルメへ",
        "low_td": "路地をのんびり歩く"
      }
    },
    {
      "id": "kinshicho",
      "name": "錦糸町",
      "tagline": "下町と映画館",
      "flavors": [
        "下町",
        "エンタメ"
      ],
      "hub_node_id": "g_003639",
      "lat": 35.696373,
      "lon": 139.814339,
      "in_graph": true,
      "trends_key": "kinshicho",
      "trends_query": "錦糸町",
      "today_hints": {
        "default": "下町と映画館を楽しむ",
        "high_td": "話題のエンタメをチェック",
        "low_td": "北口の静かな路地へ"
      }
    },
    {
      "id": "monzen",
      "name": "門前仲町",
      "tagline": "運河と居酒屋",
      "flavors": [
        "下町",
        "食"
      ],
      "hub_node_id": "g_003754",
      "lat": 35.672897,
      "lon": 139.796209,
      "in_graph": true,
      "trends_key": null,
      "trends_query": "門前仲町",
      "today_hints": {
        "default": "運河沿いの居酒屋へ",
        "high_td": "話題の店を1軒",
        "low_td": "運河を眺めながら散歩"
      }
    },
    {
      "id": "toyosu",
      "name": "豊洲",
      "tagline": "市場跡地と湾岸",
      "flavors": [
        "海沿い",
        "街歩き"
      ],
      "hub_node_id": "g_003951",
      "lat": 35.65371,
      "lon": 139.795404,
      "in_graph": true,
      "trends_key": "toyosu",
      "trends_query": "豊洲",
      "today_hints": {
        "default": "湾岸を歩く",
        "high_td": "話題の施設をチェック",
        "low_td": "海風を感じて散歩"
      }
    },
    {
      "id": "odaiba",
      "name": "お台場",
      "tagline": "ベイエリアの散歩",
      "flavors": [
        "海沿い",
        "夜景"
      ],
      "hub_node_id": "g_004112",
      "lat": 35.626446,
      "lon": 139.775114,
      "in_graph": true,
      "trends_key": "toyosu",
      "trends_query": "お台場",
      "today_hints": {
        "default": "ベイエリアを散歩",
        "high_td": "話題の夜景スポットへ",
        "low_td": "海辺をゆっくり歩く"
      }
    },
    {
      "id": "ryogoku",
      "name": "両国",
      "tagline": "相撲と江戸情緒",
      "flavors": [
        "下町",
        "歴史"
      ],
      "hub_node_id": "g_003646",
      "lat": 35.695949,
      "lon": 139.793641,
      "in_graph": true,
      "trends_key": null,
      "trends_query": "両国",
      "today_hints": {
        "default": "国技館周辺を歩く",
        "high_td": "相撲・下町の話題をチェック",
        "low_td": "江戸情緒の路地を散歩"
      }
    },
    {
      "id": "daikanyama",
      "name": "代官山",
      "tagline": "ブティックとカフェ",
      "flavors": [
        "カフェ",
        "街歩き"
      ],
      "hub_node_id": "g_004014",
      "lat": 35.648678,
      "lon": 139.703116,
      "in_graph": true,
      "trends_key": "nakameguro",
      "trends_query": "代官山",
      "today_hints": {
        "default": "ブティックとカフェを1軒",
        "high_td": "話題の店を覗く",
        "low_td": "丘の上をのんびり"
      }
    },
    {
      "id": "jiyugaoka",
      "name": "自由が丘",
      "tagline": "スイーツと雑貨",
      "flavors": [
        "カフェ",
        "のんびり"
      ],
      "hub_node_id": "g_004196",
      "lat": 35.607324,
      "lon": 139.668789,
      "in_graph": true,
      "trends_key": null,
      "trends_query": "自由が丘",
      "today_hints": {
        "default": "スイーツと雑貨を楽しむ",
        "high_td": "話題のスイーツ店へ",
        "low_td": "住宅街を散歩"
      }
    },
    {
      "id": "koenji",
      "name": "高円寺",
      "tagline": "古着とライブバー",
      "flavors": [
        "サブカル",
        "古着"
      ],
      "hub_node_id": "g_003573",
      "lat": 35.705784,
      "lon": 139.649098,
      "in_graph": true,
      "trends_key": null,
      "trends_query": "高円寺",
      "today_hints": {
        "default": "古着屋を1軒回る",
        "high_td": "話題のライブバーへ",
        "low_td": "路地をのんびり歩く"
      }
    },
    {
      "id": "sangenchaya",
      "name": "三軒茶屋",
      "tagline": "三角地帯と居酒屋",
      "flavors": [
        "食",
        "ナイト"
      ],
      "hub_node_id": "g_004016",
      "lat": 35.643687,
      "lon": 139.670346,
      "in_graph": true,
      "trends_key": null,
      "trends_query": "三軒茶屋",
      "today_hints": {
        "default": "三角地帯の居酒屋へ",
        "high_td": "話題の店を1軒",
        "low_td": "坂道を短く散歩"
      }
    }
  ]
}
